{
"type": "FeatureCollection",
"name": "schools_kisii",
"crs": { "type": "name", "properties": { "name": "urn:ogc:def:crs:OGC:1.3:CRS84" } },
"features": [
{ "type": "Feature", "properties": { "OBJECTID": 7306, "CODE": 11473.0, "SCHOOL_NAM": "REHEMA ACADEMY", "LEVEL": "Primary", "Status": "Private", "County": "Kisii", "DISTRICT": "KENYENYA", "ZONE": "MAGENA", "SUB_COUNTY": "Bomachoge Borabu", "Ward": "Bombaba Borabu", "X_Coord": 34.77471, "Y_Coord": -0.67626, "Source": "Ministry of Education, 2016" }, "geometry": { "type": "Point", "coordinates": [ 34.774710000318706, -0.676259999999127 ] } },
{ "type": "Feature", "properties": { "OBJECTID": 7317, "CODE": 11493.0, "SCHOOL_NAM": "BOBARACHO DOK", "LEVEL": "Primary", "Status": "Public", "County": "Kisii", "DISTRICT": "KISII CENTRAL", "ZONE": "GETEMBE EAST", "SUB_COUNTY": "Nyaribari Chache", "Ward": "Bobaracho", "X_Coord": 34.797625, "Y_Coord": -0.699654, "Source": "Ministry of Education, 2016" }, "geometry": { "type": "Point", "coordinates": [ 34.797625000306603, -0.699653999999137 ] } },
{ "type": "Feature", "properties": { "OBJECTID": 7324, "CODE": 11502.0, "SCHOOL_NAM": "DARAJA MBILI", "LEVEL": "Primary", "Status": "Public", "County": "Kisii", "DISTRICT": "KISII CENTRAL", "ZONE": "GETEMBE EAST", "SUB_COUNTY": "Kitutu Chache South", "Ward": "Kitutu Central", "X_Coord": 34.765368, "Y_Coord": -0.661982, "Source": "Ministry of Education, 2016" }, "geometry": { "type": "Point", "coordinates": [ 34.765368000323775, -0.661981999999134 ] } },
{ "type": "Feature", "properties": { "OBJECTID": 7328, "CODE": 11506.0, "SCHOOL_NAM": "GEKOMU DOK", "LEVEL": "Primary", "Status": "Public", "County": "Kisii", "DISTRICT": "KISII CENTRAL", "ZONE": "GETEMBE", "SUB_COUNTY": "Nyaribari Chache", "Ward": "Kisii Central", "X_Coord": 34.76903, "Y_Coord": -0.69331, "Source": "Ministry of Education, 2016" }, "geometry": { "type": "Point", "coordinates": [ 34.769030000321727, -0.693309999999079 ] } },
{ "type": "Feature", "properties": { "OBJECTID": 7331, "CODE": 11509.0, "SCHOOL_NAM": "GETEMBE", "LEVEL": "Primary", "Status": "Public", "County": "Kisii", "DISTRICT": "KISII CENTRAL", "ZONE": "GETEMBE WEST", "SUB_COUNTY": "Kitutu Chache South", "Ward": "Kitutu Central", "X_Coord": 34.761726, "Y_Coord": -0.671764, "Source": "Ministry of Education, 2016" }, "geometry": { "type": "Point", "coordinates": [ 34.761726000325723, -0.671763999999119 ] } },
{ "type": "Feature", "properties": { "OBJECTID": 7343, "CODE": 11522.0, "SCHOOL_NAM": "JOGOO SA", "LEVEL": "Primary", "Status": "Public", "County": "Kisii", "DISTRICT": "KISII CENTRAL", "ZONE": "GETEMBE EAST", "SUB_COUNTY": "Kitutu Chache South", "Ward": "Kitutu Central", "X_Coord": 34.779221, "Y_Coord": -0.674001, "Source": "Ministry of Education, 2016" }, "geometry": { "type": "Point", "coordinates": [ 34.779221000316305, -0.674000999999132 ] } },
{ "type": "Feature", "properties": { "OBJECTID": 7347, "CODE": 11526.0, "SCHOOL_NAM": "KARI DEB", "LEVEL": "Primary", "Status": "Public", "County": "Kisii", "DISTRICT": "KISII CENTRAL", "ZONE": "GETEMBE EAST", "SUB_COUNTY": "Nyaribari Chache", "Ward": "Bobaracho", "X_Coord": 34.78751, "Y_Coord": -0.680244, "Source": "Ministry of Education, 2016" }, "geometry": { "type": "Point", "coordinates": [ 34.787510000311933, -0.680243999999148 ] } },
{ "type": "Feature", "properties": { "OBJECTID": 7361, "CODE": 11541.0, "SCHOOL_NAM": "KIONGANYO MLIMANI", "LEVEL": "Primary", "Status": "Public", "County": "Kisii", "DISTRICT": "KISII CENTRAL", "ZONE": "GETEMBE EAST", "SUB_COUNTY": "Nyaribari Chache", "Ward": "Bobaracho", "X_Coord": 34.794757, "Y_Coord": -0.688978, "Source": "Ministry of Education, 2016" }, "geometry": { "type": "Point", "coordinates": [ 34.794757000308124, -0.688977999999128 ] } },
{ "type": "Feature", "properties": { "OBJECTID": 7364, "CODE": 11544.0, "SCHOOL_NAM": "KISII PRIMARY", "LEVEL": "Primary", "Status": "Public", "County": "Kisii", "DISTRICT": "KISII CENTRAL", "ZONE": "GETEMBE WEST", "SUB_COUNTY": "Nyaribari Chache", "Ward": "Kisii Central", "X_Coord": 34.768617, "Y_Coord": -0.672591, "Source": "Ministry of Education, 2016" }, "geometry": { "type": "Point", "coordinates": [ 34.768617000321989, -0.672590999999128 ] } },
{ "type": "Feature", "properties": { "OBJECTID": 7365, "CODE": 11545.0, "SCHOOL_NAM": "KISII CAMPUS", "LEVEL": "Primary", "Status": "Public", "County": "Kisii", "DISTRICT": "KISII CENTRAL", "ZONE": "GETEMBE EAST", "SUB_COUNTY": "Nyaribari Chache", "Ward": "Bobaracho", "X_Coord": 34.780941, "Y_Coord": -0.688207, "Source": "Ministry of Education, 2016" }, "geometry": { "type": "Point", "coordinates": [ 34.780941000315366, -0.688206999999117 ] } },
{ "type": "Feature", "properties": { "OBJECTID": 7366, "CODE": 11547.0, "SCHOOL_NAM": "KISII SPECIAL", "LEVEL": "Primary", "Status": "Public", "County": "Kisii", "DISTRICT": "KISII CENTRAL", "ZONE": "GETEMBE WEST", "SUB_COUNTY": "Kitutu Chache South", "Ward": "Kitutu Central", "X_Coord": 34.762753, "Y_Coord": -0.671969, "Source": "Ministry of Education, 2016" }, "geometry": { "type": "Point", "coordinates": [ 34.762753000325155, -0.67196899999911 ] } },
{ "type": "Feature", "properties": { "OBJECTID": 7383, "CODE": 11567.0, "SCHOOL_NAM": "NYAMAGE", "LEVEL": "Primary", "Status": "Public", "County": "Kisii", "DISTRICT": "KISII CENTRAL", "ZONE": "GETEMBE EAST", "SUB_COUNTY": "Nyaribari Chache", "Ward": "Bobaracho", "X_Coord": 34.781847, "Y_Coord": -0.69333, "Source": "Ministry of Education, 2016" }, "geometry": { "type": "Point", "coordinates": [ 34.781847000314876, -0.693329799999117 ] } },
{ "type": "Feature", "properties": { "OBJECTID": 7386, "CODE": 11570.0, "SCHOOL_NAM": "NYAMBERA DOK", "LEVEL": "Primary", "Status": "Public", "County": "Kisii", "DISTRICT": "KISII CENTRAL", "ZONE": "GETEMBE EAST", "SUB_COUNTY": "Kitutu Chache South", "Ward": "Bogeka", "X_Coord": 34.774425, "Y_Coord": -0.669311, "Source": "Ministry of Education, 2016" }, "geometry": { "type": "Point", "coordinates": [ 34.774424500318872, -0.669310599999107 ] } },
{ "type": "Feature", "properties": { "OBJECTID": 7392, "CODE": 11577.0, "SCHOOL_NAM": "NYANCHWA MIXED", "LEVEL": "Primary", "Status": "Public", "County": "Kisii", "DISTRICT": "KISII CENTRAL", "ZONE": "GETEMBE WEST", "SUB_COUNTY": "Nyaribari Chache", "Ward": "Kisii Central", "X_Coord": 34.763285, "Y_Coord": -0.675967, "Source": "Ministry of Education, 2016" }, "geometry": { "type": "Point", "coordinates": [ 34.763285000324863, -0.675966999999087 ] } },
{ "type": "Feature", "properties": { "OBJECTID": 7398, "CODE": 11583.0, "SCHOOL_NAM": "NYANKONGO DOK", "LEVEL": "Primary", "Status": "Public", "County": "Kisii", "DISTRICT": "KISII CENTRAL", "ZONE": "GETEMBE EAST", "SUB_COUNTY": "Kitutu Chache South", "Ward": "Kitutu Central", "X_Coord": 34.78469, "Y_Coord": -0.670075, "Source": "Ministry of Education, 2016" }, "geometry": { "type": "Point", "coordinates": [ 34.784690000313418, -0.670074999999158 ] } },
{ "type": "Feature", "properties": { "OBJECTID": 7403, "CODE": 11591.0, "SCHOOL_NAM": "NYAURA DEB", "LEVEL": "Primary", "Status": "Public", "County": "Kisii", "DISTRICT": "KISII CENTRAL", "ZONE": "GETEMBE EAST", "SUB_COUNTY": "Nyaribari Chache", "Ward": "Kisii Central", "X_Coord": 34.774304, "Y_Coord": -0.698869, "Source": "Ministry of Education, 2016" }, "geometry": { "type": "Point", "coordinates": [ 34.774304000318892, -0.698868999999055 ] } },
{ "type": "Feature", "properties": { "OBJECTID": 7420, "CODE": 11611.0, "SCHOOL_NAM": "ST JOSEPHS NYABURURU", "LEVEL": "Primary", "Status": "Public", "County": "Kisii", "DISTRICT": "KISII CENTRAL", "ZONE": "GETEMBE WEST", "SUB_COUNTY": "Kitutu Chache South", "Ward": "Kitutu Central", "X_Coord": 34.746655, "Y_Coord": -0.654295, "Source": "Ministry of Education, 2016" }, "geometry": { "type": "Point", "coordinates": [ 34.746655200334061, -0.654294599999081 ] } },
{ "type": "Feature", "properties": { "OBJECTID": 7421, "CODE": 11612.0, "SCHOOL_NAM": "ST MARYS G NYABURURU", "LEVEL": "Primary", "Status": "Public", "County": "Kisii", "DISTRICT": "KISII CENTRAL", "ZONE": "GETEMBE WEST", "SUB_COUNTY": "Kitutu Chache South", "Ward": "Kitutu Central", "X_Coord": 34.745203, "Y_Coord": -0.655874, "Source": "Ministry of Education, 2016" }, "geometry": { "type": "Point", "coordinates": [ 34.745202800334859, -0.655874299999102 ] } },
{ "type": "Feature", "properties": { "OBJECTID": 7428, "CODE": 11621.0, "SCHOOL_NAM": "AIC GRACE", "LEVEL": "Primary", "Status": "Private", "County": "Kisii", "DISTRICT": "KISII CENTRAL", "ZONE": "GETEMBE WEST", "SUB_COUNTY": "Nyaribari Chache", "Ward": "Kisii Central", "X_Coord": 34.76819, "Y_Coord": -0.671632, "Source": "Ministry of Education, 2016" }, "geometry": { "type": "Point", "coordinates": [ 34.768190000322221, -0.671631999999124 ] } },
{ "type": "Feature", "properties": { "OBJECTID": 7431, "CODE": 11625.0, "SCHOOL_NAM": "BRITOM", "LEVEL": "Primary", "Status": "Private", "County": "Kisii", "DISTRICT": "KISII CENTRAL", "ZONE": "GETEMBE WEST", "SUB_COUNTY": "Nyaribari Chache", "Ward": "Kisii Central", "X_Coord": 34.762784, "Y_Coord": -0.674722, "Source": "Ministry of Education, 2016" }, "geometry": { "type": "Point", "coordinates": [ 34.762784000325148, -0.674721999999114 ] } },
{ "type": "Feature", "properties": { "OBJECTID": 7434, "CODE": 11632.0, "SCHOOL_NAM": "GENESIS PREPARATORY", "LEVEL": "Primary", "Status": "Private", "County": "Kisii", "DISTRICT": "KISII CENTRAL", "ZONE": "GETEMBE WEST", "SUB_COUNTY": "Kitutu Chache South", "Ward": "Kitutu Central", "X_Coord": 34.7643, "Y_Coord": -0.668622, "Source": "Ministry of Education, 2016" }, "geometry": { "type": "Point", "coordinates": [ 34.764300000324333, -0.668621999999125 ] } },
{ "type": "Feature", "properties": { "OBJECTID": 7435, "CODE": 11636.0, "SCHOOL_NAM": "GREEN LIGHT", "LEVEL": "Primary", "Status": "Private", "County": "Kisii", "DISTRICT": "KISII CENTRAL", "ZONE": "GETEMBE EAST", "SUB_COUNTY": "Nyaribari Chache", "Ward": "Kisii Central", "X_Coord": 34.786081, "Y_Coord": -0.671649, "Source": "Ministry of Education, 2016" }, "geometry": { "type": "Point", "coordinates": [ 34.786081000312684, -0.67164899999916 ] } },
{ "type": "Feature", "properties": { "OBJECTID": 7436, "CODE": 11637.0, "SCHOOL_NAM": "GUSII HIGHLIGHTS", "LEVEL": "Primary", "Status": "Private", "County": "Kisii", "DISTRICT": "KISII CENTRAL", "ZONE": "GETEMBE EAST", "SUB_COUNTY": "Nyaribari Chache", "Ward": "Kisii Central", "X_Coord": 34.77621, "Y_Coord": -0.68772, "Source": "Ministry of Education, 2016" }, "geometry": { "type": "Point", "coordinates": [ 34.776210000317882, -0.687719999999122 ] } },
{ "type": "Feature", "properties": { "OBJECTID": 7437, "CODE": 11638.0, "SCHOOL_NAM": "IMPERIAL", "LEVEL": "Primary", "Status": "Private", "County": "Kisii", "DISTRICT": "KISII CENTRAL", "ZONE": "GETEMBE WEST", "SUB_COUNTY": "Nyaribari Chache", "Ward": "Kisii Central", "X_Coord": 34.741476, "Y_Coord": -0.658699, "Source": "Ministry of Education, 2016" }, "geometry": { "type": "Point", "coordinates": [ 34.741476000336952, -0.658698999999059 ] } },
{ "type": "Feature", "properties": { "OBJECTID": 7440, "CODE": 11649.0, "SCHOOL_NAM": "LOMA MIXED", "LEVEL": "Primary", "Status": "Private", "County": "Kisii", "DISTRICT": "KISII CENTRAL", "ZONE": "GETEMBE EAST", "SUB_COUNTY": "Nyaribari Chache", "Ward": "Bobaracho", "X_Coord": 34.778897, "Y_Coord": -0.695006, "Source": "Ministry of Education, 2016" }, "geometry": { "type": "Point", "coordinates": [ 34.778897000316448, -0.695005999999109 ] } },
{ "type": "Feature", "properties": { "OBJECTID": 7446, "CODE": 11661.0, "SCHOOL_NAM": "NYANCHWA ADVENTIST PREPARATORY", "LEVEL": "Primary", "Status": "Private", "County": "Kisii", "DISTRICT": "KISII CENTRAL", "ZONE": "GETEMBE WEST", "SUB_COUNTY": "Nyaribari Chache", "Ward": "Kisii Central", "X_Coord": 34.76649, "Y_Coord": -0.680279, "Source": "Ministry of Education, 2016" }, "geometry": { "type": "Point", "coordinates": [ 34.766490000323117, -0.680278999999092 ] } },
{ "type": "Feature", "properties": { "OBJECTID": 7448, "CODE": 11668.0, "SCHOOL_NAM": "R.M GUDKA", "LEVEL": "Primary", "Status": "Private", "County": "Kisii", "DISTRICT": "KISII CENTRAL", "ZONE": "GETEMBE WEST", "SUB_COUNTY": "Kitutu Chache South", "Ward": "Nyakoe", "X_Coord": 34.752894, "Y_Coord": -0.648652, "Source": "Ministry of Education, 2016" }, "geometry": { "type": "Point", "coordinates": [ 34.752894000330606, -0.648651599999127 ] } },
{ "type": "Feature", "properties": { "OBJECTID": 7452, "CODE": 11677.0, "SCHOOL_NAM": "SAKAGWA", "LEVEL": "Primary", "Status": "Private", "County": "Kisii", "DISTRICT": "KISII CENTRAL", "ZONE": "GETEMBE EAST", "SUB_COUNTY": "Nyaribari Chache", "Ward": "Bobaracho", "X_Coord": 34.776248, "Y_Coord": -0.676606, "Source": "Ministry of Education, 2016" }, "geometry": { "type": "Point", "coordinates": [ 34.776248000317892, -0.676605999999127 ] } },
{ "type": "Feature", "properties": { "OBJECTID": 7453, "CODE": 11678.0, "SCHOOL_NAM": "SET GREENHILL", "LEVEL": "Primary", "Status": "Private", "County": "Kisii", "DISTRICT": "KISII CENTRAL", "ZONE": "GETEMBE EAST", "SUB_COUNTY": "Nyaribari Chache", "Ward": "Bobaracho", "X_Coord": 34.785913, "Y_Coord": -0.672446, "Source": "Ministry of Education, 2016" }, "geometry": { "type": "Point", "coordinates": [ 34.785913000312775, -0.672445999999146 ] } },
{ "type": "Feature", "properties": { "OBJECTID": 7459, "CODE": 11703.0, "SCHOOL_NAM": "TRACER PREPARATORY", "LEVEL": "Primary", "Status": "Private", "County": "Kisii", "DISTRICT": "KISII CENTRAL", "ZONE": "GETEMBE EAST", "SUB_COUNTY": "Kitutu Chache South", "Ward": "Kitutu Central", "X_Coord": 34.769396, "Y_Coord": -0.672404, "Source": "Ministry of Education, 2016" }, "geometry": { "type": "Point", "coordinates": [ 34.769396000321571, -0.67240399999912 ] } },
{ "type": "Feature", "properties": { "OBJECTID": 7460, "CODE": 11706.0, "SCHOOL_NAM": "STAR JUNIOR ACADEMY", "LEVEL": "Primary", "Status": "Private", "County": "Kisii", "DISTRICT": "KISII CENTRAL", "ZONE": "GETEMBE EAST", "SUB_COUNTY": "Kitutu Chache South", "Ward": "Bogeka", "X_Coord": 34.771323, "Y_Coord": -0.663093, "Source": "Ministry of Education, 2016" }, "geometry": { "type": "Point", "coordinates": [ 34.77132300032055, -0.663092999999139 ] } },
{ "type": "Feature", "properties": { "OBJECTID": 7461, "CODE": 11708.0, "SCHOOL_NAM": "COMMENIUS LEARNING CENTRE", "LEVEL": "Primary", "Status": "Private", "County": "Kisii", "DISTRICT": "KISII CENTRAL", "ZONE": "GETEMBE WEST", "SUB_COUNTY": "Kitutu Chache South", "Ward": "Nyakoe", "X_Coord": 34.764068, "Y_Coord": -0.678712, "Source": "Ministry of Education, 2016" }, "geometry": { "type": "Point", "coordinates": [ 34.764068100324444, -0.678711799999114 ] } },
{ "type": "Feature", "properties": { "OBJECTID": 7470, "CODE": 11718.0, "SCHOOL_NAM": "EKERORE D.E.B", "LEVEL": "Primary", "Status": "Public", "County": "Kisii", "DISTRICT": "KISII SOUTH", "ZONE": "SUNEKA", "SUB_COUNTY": "Bonchari", "Ward": "Bogiakumu", "X_Coord": 34.75199, "Y_Coord": -0.67838, "Source": "Ministry of Education, 2016" }, "geometry": { "type": "Point", "coordinates": [ 34.751990000331055, -0.678379999999077 ] } },
{ "type": "Feature", "properties": { "OBJECTID": 7493, "CODE": 11743.0, "SCHOOL_NAM": "MOSANDO SDA", "LEVEL": "Primary", "Status": "Public", "County": "Kisii", "DISTRICT": "KISII SOUTH", "ZONE": "SUNEKA", "SUB_COUNTY": "Bonchari", "Ward": "Bogiakumu", "X_Coord": 34.735409, "Y_Coord": -0.675378, "Source": "Ministry of Education, 2016" }, "geometry": { "type": "Point", "coordinates": [ 34.735409000340333, -0.675377999999053 ] } },
{ "type": "Feature", "properties": { "OBJECTID": 7495, "CODE": 11745.0, "SCHOOL_NAM": "MWAMISOKO", "LEVEL": "Primary", "Status": "Public", "County": "Kisii", "DISTRICT": "KISII SOUTH", "ZONE": "SUNEKA", "SUB_COUNTY": "Bonchari", "Ward": "Bogiakumu", "X_Coord": 34.730208, "Y_Coord": -0.670121, "Source": "Ministry of Education, 2016" }, "geometry": { "type": "Point", "coordinates": [ 34.730208000343296, -0.670120999999025 ] } },
{ "type": "Feature", "properties": { "OBJECTID": 7503, "CODE": 11754.0, "SCHOOL_NAM": "NYAMOKENYE DOK", "LEVEL": "Primary", "Status": "Public", "County": "Kisii", "DISTRICT": "KISII SOUTH", "ZONE": "SUNEKA", "SUB_COUNTY": "Bonchari", "Ward": "Bogiakumu", "X_Coord": 34.737039, "Y_Coord": -0.667293, "Source": "Ministry of Education, 2016" }, "geometry": { "type": "Point", "coordinates": [ 34.737039000339429, -0.667292999999057 ] } },
{ "type": "Feature", "properties": { "OBJECTID": 7592, "CODE": 11892.0, "SCHOOL_NAM": "BOBARACHO NEW VISION", "LEVEL": "Primary", "Status": "Private", "County": "Kisii", "DISTRICT": "MARANI", "ZONE": "KEGOGI", "SUB_COUNTY": "Kitutu Chache North", "Ward": "Monyerero", "X_Coord": 34.797625, "Y_Coord": -0.699654, "Source": "Ministry of Education, 2016" }, "geometry": { "type": "Point", "coordinates": [ 34.797625000306603, -0.699653999999137 ] } },
{ "type": "Feature", "properties": { "OBJECTID": 7610, "CODE": 11920.0, "SCHOOL_NAM": "BRIDGE INTERNATIONAL", "LEVEL": "Primary", "Status": "Private", "County": "Kisii", "DISTRICT": "MARANI", "ZONE": "MARANI", "SUB_COUNTY": "Kitutu Chache North", "Ward": "Marani", "X_Coord": 34.760665, "Y_Coord": -0.672023, "Source": "Ministry of Education, 2016" }, "geometry": { "type": "Point", "coordinates": [ 34.76066480032631, -0.672023399999087 ] } },
{ "type": "Feature", "properties": { "OBJECTID": 7766, "CODE": 12113.0, "SCHOOL_NAM": "ADAMS", "LEVEL": "Primary", "Status": "Private", "County": "Kisii", "DISTRICT": "MASABA SOUTH", "ZONE": "IBACHO", "SUB_COUNTY": "Nyaribari Masaba", "Ward": "Kiamokama", "X_Coord": 34.746907, "Y_Coord": -0.66096, "Source": "Ministry of Education, 2016" }, "geometry": { "type": "Point", "coordinates": [ 34.746907000333906, -0.660959999999096 ] } },
{ "type": "Feature", "properties": { "OBJECTID": 21711, "CODE": 35449.0, "SCHOOL_NAM": "ST. JOSEPH`S  NYABIGENA BOYS HIGH", "LEVEL": "Secondary", "Status": "Public", "County": "Kisii", "DISTRICT": "GUCHA SOUTH", "ZONE": "MOCHENGO", "SUB_COUNTY": "South Mugirango", "Ward": "Bogetenga", "X_Coord": 34.745888, "Y_Coord": -0.651783, "Source": "Ministry of Education, 2016" }, "geometry": { "type": "Point", "coordinates": [ 34.745888000334496, -0.651782999999113 ] } },
{ "type": "Feature", "properties": { "OBJECTID": 21755, "CODE": 35497.0, "SCHOOL_NAM": "BOBARACHO MIXED", "LEVEL": "Secondary", "Status": "Public", "County": "Kisii", "DISTRICT": "KISII CENTRAL", "ZONE": "GETEMBE EAST", "SUB_COUNTY": "Nyaribari Chache", "Ward": "Bobaracho", "X_Coord": 34.798183, "Y_Coord": -0.698275, "Source": "Ministry of Education, 2016" }, "geometry": { "type": "Point", "coordinates": [ 34.798183000306331, -0.698274999999139 ] } },
{ "type": "Feature", "properties": { "OBJECTID": 21759, "CODE": 35501.0, "SCHOOL_NAM": "DARAJA MBILI SEC", "LEVEL": "Secondary", "Status": "Public", "County": "Kisii", "DISTRICT": "KISII CENTRAL", "ZONE": "GETEMBE EAST", "SUB_COUNTY": "Kitutu Chache South", "Ward": "Nyatieko", "X_Coord": 34.767311, "Y_Coord": -0.66172, "Source": "Ministry of Education, 2016" }, "geometry": { "type": "Point", "coordinates": [ 34.767311000322699, -0.66171999999913 ] } },
{ "type": "Feature", "properties": { "OBJECTID": 21760, "CODE": 35502.0, "SCHOOL_NAM": "GETEMBE MIXED DAY", "LEVEL": "Secondary", "Status": "Public", "County": "Kisii", "DISTRICT": "KISII CENTRAL", "ZONE": "GETEMBE WEST", "SUB_COUNTY": "Kitutu Chache South", "Ward": "Kitutu Central", "X_Coord": 34.761726, "Y_Coord": -0.671764, "Source": "Ministry of Education, 2016" }, "geometry": { "type": "Point", "coordinates": [ 34.761726000325723, -0.671763999999119 ] } },
{ "type": "Feature", "properties": { "OBJECTID": 21768, "CODE": 35511.0, "SCHOOL_NAM": "KERERI GIRLS", "LEVEL": "Secondary", "Status": "Public", "County": "Kisii", "DISTRICT": "KISII CENTRAL", "ZONE": "GETEMBE EAST", "SUB_COUNTY": "Nyaribari Chache", "Ward": "Bobaracho", "X_Coord": 34.778675, "Y_Coord": -0.683097, "Source": "Ministry of Education, 2016" }, "geometry": { "type": "Point", "coordinates": [ 34.778675000316589, -0.683096999999112 ] } },
{ "type": "Feature", "properties": { "OBJECTID": 21769, "CODE": 35512.0, "SCHOOL_NAM": "KIAMABUNDU SEC", "LEVEL": "Secondary", "Status": "Public", "County": "Kisii", "DISTRICT": "KISII CENTRAL", "ZONE": "GETEMBE WEST", "SUB_COUNTY": "Nyaribari Chache", "Ward": "Kisii Central", "X_Coord": 34.76218, "Y_Coord": -0.68989, "Source": "Ministry of Education, 2016" }, "geometry": { "type": "Point", "coordinates": [ 34.762180000325429, -0.689889999999086 ] } },
{ "type": "Feature", "properties": { "OBJECTID": 21773, "CODE": 35516.0, "SCHOOL_NAM": "KISII SCHOOL", "LEVEL": "Secondary", "Status": "Public", "County": "Kisii", "DISTRICT": "KISII CENTRAL", "ZONE": "GETEMBE EAST", "SUB_COUNTY": "Nyaribari Chache", "Ward": "Bobaracho", "X_Coord": 34.783448, "Y_Coord": -0.684233, "Source": "Ministry of Education, 2016" }, "geometry": { "type": "Point", "coordinates": [ 34.783448000314053, -0.684232999999109 ] } },
{ "type": "Feature", "properties": { "OBJECTID": 21782, "CODE": 35527.0, "SCHOOL_NAM": "NYANCHWA BOYS", "LEVEL": "Secondary", "Status": "Public", "County": "Kisii", "DISTRICT": "KISII CENTRAL", "ZONE": "GETEMBE WEST", "SUB_COUNTY": "Nyaribari Chache", "Ward": "Kisii Central", "X_Coord": 34.76649, "Y_Coord": -0.680279, "Source": "Ministry of Education, 2016" }, "geometry": { "type": "Point", "coordinates": [ 34.766490000323117, -0.680278999999092 ] } },
{ "type": "Feature", "properties": { "OBJECTID": 21783, "CODE": 35528.0, "SCHOOL_NAM": "NYANCHWA GIRLS", "LEVEL": "Secondary", "Status": "Public", "County": "Kisii", "DISTRICT": "KISII CENTRAL", "ZONE": "GETEMBE WEST", "SUB_COUNTY": "Nyaribari Chache", "Ward": "Kisii Central", "X_Coord": 34.764165, "Y_Coord": -0.677489, "Source": "Ministry of Education, 2016" }, "geometry": { "type": "Point", "coordinates": [ 34.764165000324383, -0.677488999999113 ] } },
{ "type": "Feature", "properties": { "OBJECTID": 21787, "CODE": 35533.0, "SCHOOL_NAM": "NYATARO C.O.G SEC", "LEVEL": "Secondary", "Status": "Public", "County": "Kisii", "DISTRICT": "KISII CENTRAL", "ZONE": "KIOGORO", "SUB_COUNTY": "Nyaribari Chache", "Ward": "Kisii Central", "X_Coord": 34.77683, "Y_Coord": -0.711125, "Source": "Ministry of Education, 2016" }, "geometry": { "type": "Point", "coordinates": [ 34.77683000031751, -0.711124999999082 ] } },
{ "type": "Feature", "properties": { "OBJECTID": 21789, "CODE": 35535.0, "SCHOOL_NAM": "NYAURA MIXED", "LEVEL": "Secondary", "Status": "Public", "County": "Kisii", "DISTRICT": "KISII CENTRAL", "ZONE": "GETEMBE EAST", "SUB_COUNTY": "Kitutu Chache South", "Ward": "Kitutu Central", "X_Coord": 34.774498, "Y_Coord": -0.699463, "Source": "Ministry of Education, 2016" }, "geometry": { "type": "Point", "coordinates": [ 34.774498000318779, -0.699462999999104 ] } },
{ "type": "Feature", "properties": { "OBJECTID": 21808, "CODE": 35558.0, "SCHOOL_NAM": "OUR LADY OF LOURDES MABURURU", "LEVEL": "Secondary", "Status": "Public", "County": "Kisii", "DISTRICT": "KISII CENTRAL", "ZONE": "GETEMBE WEST", "SUB_COUNTY": "Kitutu Chache South", "Ward": "Bogusero", "X_Coord": 34.77345, "Y_Coord": -0.666983, "Source": "Ministry of Education, 2016" }, "geometry": { "type": "Point", "coordinates": [ 34.773450000319393, -0.666982999999129 ] } },
{ "type": "Feature", "properties": { "OBJECTID": 21809, "CODE": 35560.0, "SCHOOL_NAM": "GUSII HIGHLIGHTS HIGH", "LEVEL": "Secondary", "Status": "Private", "County": "Kisii", "DISTRICT": "KISII CENTRAL", "ZONE": "GETEMBE WEST", "SUB_COUNTY": "Nyaribari Chache", "Ward": "Kisii Central", "X_Coord": 34.77515, "Y_Coord": -0.68763, "Source": "Ministry of Education, 2016" }, "geometry": { "type": "Point", "coordinates": [ 34.77515000031844, -0.687629999999112 ] } },
{ "type": "Feature", "properties": { "OBJECTID": 21812, "CODE": 35564.0, "SCHOOL_NAM": "NYACHWA ADVENTIST", "LEVEL": "Secondary", "Status": "Private", "County": "Kisii", "DISTRICT": "KISII CENTRAL", "ZONE": "GETEMBE WEST", "SUB_COUNTY": "Nyaribari Chache", "Ward": "Kisii Central", "X_Coord": 34.766443, "Y_Coord": -0.680179, "Source": "Ministry of Education, 2016" }, "geometry": { "type": "Point", "coordinates": [ 34.766443200323145, -0.680178799999109 ] } },
{ "type": "Feature", "properties": { "OBJECTID": 21829, "CODE": 35587.0, "SCHOOL_NAM": "MOSANDO SDA MIXED", "LEVEL": "Secondary", "Status": "Public", "County": "Kisii", "DISTRICT": "KISII SOUTH", "ZONE": "GESERO", "SUB_COUNTY": "Bonchari", "Ward": "Bogiakumu", "X_Coord": 34.735409, "Y_Coord": -0.675378, "Source": "Ministry of Education, 2016" }, "geometry": { "type": "Point", "coordinates": [ 34.735409000340333, -0.675377999999053 ] } },
{ "type": "Feature", "properties": { "OBJECTID": 21838, "CODE": 35606.0, "SCHOOL_NAM": "BISHOP CHARLES MUGENDI", "LEVEL": "Secondary", "Status": "Public", "County": "Kisii", "DISTRICT": "KISII SOUTH", "ZONE": "GESERO", "SUB_COUNTY": "Bonchari", "Ward": "Bogiakumu", "X_Coord": 34.737628, "Y_Coord": -0.666017, "Source": "Ministry of Education, 2016" }, "geometry": { "type": "Point", "coordinates": [ 34.737628000339086, -0.666016999999079 ] } },
{ "type": "Feature", "properties": { "OBJECTID": 28791, "CODE": 47592.0, "SCHOOL_NAM": "BOSIRE ACADEMY", "LEVEL": "Primary", "Status": "Private", "County": "Kisii", "DISTRICT": "KISII CENTRAL", "ZONE": "GETEMBE EAST", "SUB_COUNTY": "Kitutu Chache South", "Ward": "Kitutu Central", "X_Coord": 34.757355, "Y_Coord": -0.66316, "Source": "Ministry of Education, 2016" }, "geometry": { "type": "Point", "coordinates": [ 34.757355000328133, -0.663159999999082 ] } },
{ "type": "Feature", "properties": { "OBJECTID": 28793, "CODE": 47598.0, "SCHOOL_NAM": "BRIDGE INTERNATIONAL ACADEMIES", "LEVEL": "Primary", "Status": "Private", "County": "Kisii", "DISTRICT": "KISII CENTRAL", "ZONE": "MOSOCHO", "SUB_COUNTY": "Kitutu Chache South", "Ward": "Bogusero", "X_Coord": 34.784471, "Y_Coord": -0.676751, "Source": "Ministry of Education, 2016" }, "geometry": { "type": "Point", "coordinates": [ 34.784470900313522, -0.676751499999145 ] } },
{ "type": "Feature", "properties": { "OBJECTID": 29455, "CODE": 49383.0, "SCHOOL_NAM": "GREEN VALLEY ACADEMY", "LEVEL": "Secondary", "Status": "Private", "County": "Kisii", "DISTRICT": "KISII CENTRAL", "ZONE": "GETEMBE WEST", "SUB_COUNTY": "Kitutu Chache South", "Ward": "Kitutu Central", "X_Coord": 34.786081, "Y_Coord": -0.671649, "Source": "Ministry of Education, 2016" }, "geometry": { "type": "Point", "coordinates": [ 34.786081000312684, -0.67164899999916 ] } },
{ "type": "Feature", "properties": { "OBJECTID": 29460, "CODE": 49394.0, "SCHOOL_NAM": "NYABURURU GIRLS", "LEVEL": "Secondary", "Status": "Public", "County": "Kisii", "DISTRICT": "KISII CENTRAL", "ZONE": "GETEMBE WEST", "SUB_COUNTY": "Kitutu Chache South", "Ward": "Kitutu Central", "X_Coord": 34.748399, "Y_Coord": -0.649642, "Source": "Ministry of Education, 2016" }, "geometry": { "type": "Point", "coordinates": [ 34.748399000333094, -0.649641999999094 ] } },
{ "type": "Feature", "properties": { "OBJECTID": 29573, "CODE": 2007110.0, "SCHOOL_NAM": "GESA BRIGHT ACADEMY", "LEVEL": "Primary", "Status": null, "County": "KISII", "DISTRICT": null, "ZONE": null, "SUB_COUNTY": null, "Ward": "KISII CENTRAL", "X_Coord": 34.76863, "Y_Coord": -0.70333, "Source": "Open Data Kenya, School 2007" }, "geometry": { "type": "Point", "coordinates": [ 34.768630000321927, -0.703329999999064 ] } },
{ "type": "Feature", "properties": { "OBJECTID": 29631, "CODE": 2007310.0, "SCHOOL_NAM": "ST. MARK ACADEMY", "LEVEL": "Primary", "Status": null, "County": "KISII", "DISTRICT": null, "ZONE": null, "SUB_COUNTY": null, "Ward": "BOBARACHO", "X_Coord": 34.781668, "Y_Coord": -0.675223, "Source": "Open Data Kenya, School 2007" }, "geometry": { "type": "Point", "coordinates": [ 34.781668000315015, -0.675222999999118 ] } },
{ "type": "Feature", "properties": { "OBJECTID": 29784, "CODE": 2007923.0, "SCHOOL_NAM": "NYANGENA GREENVILLE ACADEMY", "LEVEL": "Primary", "Status": null, "County": "KISII", "DISTRICT": null, "ZONE": null, "SUB_COUNTY": null, "Ward": "KITUTU   CENTRAL", "X_Coord": 34.74396, "Y_Coord": -0.658411, "Source": "Open Data Kenya, School 2007" }, "geometry": { "type": "Point", "coordinates": [ 34.743960000335562, -0.6584109999991 ] } },
{ "type": "Feature", "properties": { "OBJECTID": 30018, "CODE": 20071794.0, "SCHOOL_NAM": "KIARUTA PRI", "LEVEL": "Primary", "Status": null, "County": "KISII", "DISTRICT": null, "ZONE": null, "SUB_COUNTY": null, "Ward": "BOGIAKUMU", "X_Coord": 34.734989, "Y_Coord": -0.653099, "Source": "Open Data Kenya, School 2007" }, "geometry": { "type": "Point", "coordinates": [ 34.734989000340612, -0.65309899999906 ] } },
{ "type": "Feature", "properties": { "OBJECTID": 30031, "CODE": 20071851.999999996, "SCHOOL_NAM": "MONTESSORI ACADEMY", "LEVEL": "Primary", "Status": null, "County": "KISII", "DISTRICT": null, "ZONE": null, "SUB_COUNTY": null, "Ward": "KITUTU   CENTRAL", "X_Coord": 34.76489, "Y_Coord": -0.674687, "Source": "Open Data Kenya, School 2007" }, "geometry": { "type": "Point", "coordinates": [ 34.764890000323994, -0.674686999999118 ] } },
{ "type": "Feature", "properties": { "OBJECTID": 30124, "CODE": 20072195.0, "SCHOOL_NAM": "VICTORY JNR ACADEMY", "LEVEL": "Primary", "Status": null, "County": "KISII", "DISTRICT": null, "ZONE": null, "SUB_COUNTY": null, "Ward": "KITUTU   CENTRAL", "X_Coord": 34.759663, "Y_Coord": -0.655674, "Source": "Open Data Kenya, School 2007" }, "geometry": { "type": "Point", "coordinates": [ 34.759663000326881, -0.655673999999133 ] } },
{ "type": "Feature", "properties": { "OBJECTID": 30480, "CODE": 20073589.0, "SCHOOL_NAM": "NYAKONGO DOK PRI", "LEVEL": "Primary", "Status": null, "County": "KISII", "DISTRICT": null, "ZONE": null, "SUB_COUNTY": null, "Ward": "KITUTU   CENTRAL", "X_Coord": 34.783766, "Y_Coord": -0.667054, "Source": "Open Data Kenya, School 2007" }, "geometry": { "type": "Point", "coordinates": [ 34.783766000313904, -0.667053999999149 ] } },
{ "type": "Feature", "properties": { "OBJECTID": 30993, "CODE": 20075543.0, "SCHOOL_NAM": "ST. MARY'S NYABURURU GIRLS", "LEVEL": "Primary", "Status": null, "County": "KISII", "DISTRICT": null, "ZONE": null, "SUB_COUNTY": null, "Ward": "KITUTU   CENTRAL", "X_Coord": 34.744224, "Y_Coord": -0.653171, "Source": "Open Data Kenya, School 2007" }, "geometry": { "type": "Point", "coordinates": [ 34.744224000335421, -0.653170999999105 ] } },
{ "type": "Feature", "properties": { "OBJECTID": 31223, "CODE": 20076440.0, "SCHOOL_NAM": "MENYINKWA HIGHWAY ACADEMY", "LEVEL": "Primary", "Status": null, "County": "KISII", "DISTRICT": null, "ZONE": null, "SUB_COUNTY": null, "Ward": "KISII CENTRAL", "X_Coord": 34.773398, "Y_Coord": -0.70656, "Source": "Open Data Kenya, School 2007" }, "geometry": { "type": "Point", "coordinates": [ 34.773398000319354, -0.70655999999909 ] } },
{ "type": "Feature", "properties": { "OBJECTID": 31641, "CODE": 20078143.0, "SCHOOL_NAM": "NYAMAGE DOK PRI", "LEVEL": "Primary", "Status": null, "County": "KISII", "DISTRICT": null, "ZONE": null, "SUB_COUNTY": null, "Ward": "BOBARACHO", "X_Coord": 34.780632, "Y_Coord": -0.690514, "Source": "Open Data Kenya, School 2007" }, "geometry": { "type": "Point", "coordinates": [ 34.780632000315521, -0.690513999999096 ] } },
{ "type": "Feature", "properties": { "OBJECTID": 31893, "CODE": 20079163.0, "SCHOOL_NAM": "JOEMA EDUCATION CENTRE", "LEVEL": "Primary", "Status": null, "County": "KISII", "DISTRICT": null, "ZONE": null, "SUB_COUNTY": null, "Ward": "KITUTU   CENTRAL", "X_Coord": 34.776546, "Y_Coord": -0.66093, "Source": "Open Data Kenya, School 2007" }, "geometry": { "type": "Point", "coordinates": [ 34.776546000317772, -0.660929999999156 ] } },
{ "type": "Feature", "properties": { "OBJECTID": 32081, "CODE": 20079928.0, "SCHOOL_NAM": "DAYSTAR ACADEMY", "LEVEL": "Primary", "Status": null, "County": "KISII", "DISTRICT": null, "ZONE": null, "SUB_COUNTY": null, "Ward": "KISII CENTRAL", "X_Coord": 34.776794, "Y_Coord": -0.68456, "Source": "Open Data Kenya, School 2007" }, "geometry": { "type": "Point", "coordinates": [ 34.77679400031758, -0.684559999999116 ] } },
{ "type": "Feature", "properties": { "OBJECTID": 32223, "CODE": 200710423.00000003, "SCHOOL_NAM": "NYABERA DOK PRI", "LEVEL": "Primary", "Status": null, "County": "KISII", "DISTRICT": null, "ZONE": null, "SUB_COUNTY": null, "Ward": "KISII CENTRAL", "X_Coord": 34.774322, "Y_Coord": -0.666776, "Source": "Open Data Kenya, School 2007" }, "geometry": { "type": "Point", "coordinates": [ 34.774322000318946, -0.666775999999138 ] } },
{ "type": "Feature", "properties": { "OBJECTID": 33821, "CODE": 200716684.00000003, "SCHOOL_NAM": "KIOMAKONDO DOK PRI", "LEVEL": "Primary", "Status": null, "County": "NYAMIRA", "DISTRICT": null, "ZONE": null, "SUB_COUNTY": null, "Ward": "KEMERA", "X_Coord": 34.797769, "Y_Coord": -0.681119, "Source": "Open Data Kenya, School 2007" }, "geometry": { "type": "Point", "coordinates": [ 34.797769000306573, -0.681118999999156 ] } },
{ "type": "Feature", "properties": { "OBJECTID": 33850, "CODE": 200716796.0, "SCHOOL_NAM": "JUNCTION ACADEMY", "LEVEL": "Primary", "Status": null, "County": "KISII", "DISTRICT": null, "ZONE": null, "SUB_COUNTY": null, "Ward": "KITUTU   CENTRAL", "X_Coord": 34.754753, "Y_Coord": -0.66073, "Source": "Open Data Kenya, School 2007" }, "geometry": { "type": "Point", "coordinates": [ 34.754753000329558, -0.66072999999911 ] } },
{ "type": "Feature", "properties": { "OBJECTID": 34006, "CODE": 200717471.00000006, "SCHOOL_NAM": "GREENLIGHT ACADEMY", "LEVEL": "Primary", "Status": null, "County": "KISII", "DISTRICT": null, "ZONE": null, "SUB_COUNTY": null, "Ward": "KISII CENTRAL", "X_Coord": 34.77808, "Y_Coord": -0.688117, "Source": "Open Data Kenya, School 2007" }, "geometry": { "type": "Point", "coordinates": [ 34.778080000316898, -0.688116999999122 ] } },
{ "type": "Feature", "properties": { "OBJECTID": 34578, "CODE": 200719692.0, "SCHOOL_NAM": "JOKEVILLA ACADEMY", "LEVEL": "Primary", "Status": null, "County": "KISII", "DISTRICT": null, "ZONE": null, "SUB_COUNTY": null, "Ward": "KITUTU   CENTRAL", "X_Coord": 34.75925, "Y_Coord": -0.656894, "Source": "Open Data Kenya, School 2007" }, "geometry": { "type": "Point", "coordinates": [ 34.759250000327086, -0.656893999999123 ] } },
{ "type": "Feature", "properties": { "OBJECTID": 34924, "CODE": 200721076.0, "SCHOOL_NAM": "CAPTAIN OMAYO ACADEMY", "LEVEL": "Primary", "Status": null, "County": "KISII", "DISTRICT": null, "ZONE": null, "SUB_COUNTY": null, "Ward": "KITUTU   CENTRAL", "X_Coord": 34.756308, "Y_Coord": -0.663039, "Source": "Open Data Kenya, School 2007" }, "geometry": { "type": "Point", "coordinates": [ 34.756308000328708, -0.663038999999086 ] } },
{ "type": "Feature", "properties": { "OBJECTID": 35104, "CODE": 200721811.00000003, "SCHOOL_NAM": "KISII DEB AUTISTIC UNIT", "LEVEL": "Primary", "Status": null, "County": "KISII", "DISTRICT": null, "ZONE": null, "SUB_COUNTY": null, "Ward": "KISII CENTRAL", "X_Coord": 34.768617, "Y_Coord": -0.672591, "Source": "Open Data Kenya, School 2007" }, "geometry": { "type": "Point", "coordinates": [ 34.768617000321989, -0.672590999999128 ] } },
{ "type": "Feature", "properties": { "OBJECTID": 35463, "CODE": 200723366.0, "SCHOOL_NAM": "SUN VALLEY PREPARATORY", "LEVEL": "Primary", "Status": null, "County": "KISII", "DISTRICT": null, "ZONE": null, "SUB_COUNTY": null, "Ward": "KITUTU   CENTRAL", "X_Coord": 34.748583, "Y_Coord": -0.654043, "Source": "Open Data Kenya, School 2007" }, "geometry": { "type": "Point", "coordinates": [ 34.748583000332978, -0.654042999999105 ] } },
{ "type": "Feature", "properties": { "OBJECTID": 35542, "CODE": 200723664.0, "SCHOOL_NAM": "NYAURA SPECIAL UNIT", "LEVEL": "Primary", "Status": null, "County": "KISII", "DISTRICT": null, "ZONE": null, "SUB_COUNTY": null, "Ward": "KISII CENTRAL", "X_Coord": 34.774304, "Y_Coord": -0.698869, "Source": "Open Data Kenya, School 2007" }, "geometry": { "type": "Point", "coordinates": [ 34.774304000318892, -0.698868999999055 ] } },
{ "type": "Feature", "properties": { "OBJECTID": 35731, "CODE": 200724400.0, "SCHOOL_NAM": "YUVINALS ACADEMY", "LEVEL": "Primary", "Status": null, "County": "KISII", "DISTRICT": null, "ZONE": null, "SUB_COUNTY": null, "Ward": "KITUTU   CENTRAL", "X_Coord": 34.767713, "Y_Coord": -0.660749, "Source": "Open Data Kenya, School 2007" }, "geometry": { "type": "Point", "coordinates": [ 34.767713000322502, -0.660748999999137 ] } },
{ "type": "Feature", "properties": { "OBJECTID": 37007, "CODE": 200728648.99999997, "SCHOOL_NAM": "HIGHCREST KIAMOKAMA SEC", "LEVEL": "Secondary", "Status": null, "County": "KISII", "DISTRICT": null, "ZONE": null, "SUB_COUNTY": null, "Ward": "KISII CENTRAL", "X_Coord": 34.76892, "Y_Coord": -0.69427, "Source": "Open Data Kenya, School 2007" }, "geometry": { "type": "Point", "coordinates": [ 34.768920000321778, -0.694269999999097 ] } },
{ "type": "Feature", "properties": { "OBJECTID": 37008, "CODE": 200728654.0, "SCHOOL_NAM": "ST. MOTHER THERESA GIRLS SEC", "LEVEL": "Secondary", "Status": null, "County": "KISII", "DISTRICT": null, "ZONE": null, "SUB_COUNTY": null, "Ward": "KISII CENTRAL", "X_Coord": 34.776204, "Y_Coord": -0.693254, "Source": "Open Data Kenya, School 2007" }, "geometry": { "type": "Point", "coordinates": [ 34.776204000317883, -0.69325399999907 ] } },
{ "type": "Feature", "properties": { "OBJECTID": 37033, "CODE": 200728762.0, "SCHOOL_NAM": "ST. STEPHENS HIGH SCH", "LEVEL": "Secondary", "Status": null, "County": "KISII", "DISTRICT": null, "ZONE": null, "SUB_COUNTY": null, "Ward": "KITUTU   CENTRAL", "X_Coord": 34.757914, "Y_Coord": -0.664184, "Source": "Open Data Kenya, School 2007" }, "geometry": { "type": "Point", "coordinates": [ 34.757914000327816, -0.664183999999108 ] } }
]
}
